{
  "Title": "title of newsitem",
  "Author": "some author",
  "Source": {},
  "BodyDescription": "description",
  "ContactDetails": [
    {
      "Name": "Name of contact",
      "Email": "some@email.com",
      "TelephoneNumber": "1234567890"
    }
  ],
  "LocationDetails": "string",
  "ProdutionDate": "2022-04-04T11:26:35.864Z",
  "EndDate": "2022-04-04T11:26:35.864Z",
  "Category": "NEWS|PROGRAMME|STORY",
  "Region": "PROVINCE|LOCAL",
  "Videos": [
    {
      "Title": "Title of video",
      "Folder": "/some/location",
      "Rights": "copyright of someone",
      "Camera": "Some camera name",
      "LastWord": "Last words",
      "ProxyFile": "string",
      "Presentation": "string",
      "Location": {
        "Name": "Name of location",
        "City": "Tilburg",
        "Province": "Noord-brabant",
        "Street": "Somestreet 137",
        "Zip": "1234AB",
        "Latitude": "52.47451806930726",
        "Longtitude": "52.47451806930726"
      },
      "Format": "string",
      "MediaLocation": "some uri",
      "RepublishDate": "2008-10-31T17:04:32",
      "Reporter": "Some name",
      "Sound": "uri to sound",
      "Editor": "Some editor name",
      "LastPicture": "uri to picture",
      "Keywords": [
        "word",
        "word",
        "word"
      ],
      "VoiceOver": "uri to voiceover",
      "Description": "some description",
      "ProgramDate": "2008-10-31T17:04:32",
      "ItemName": "some name",
      "EPG": "string",
      "DurationSeconds": 150,
      "ArchiveMaterials": "string",
      "Weather": "CLOUDY",
      "Producer": "Some name",
      "Director": "Some name",
      "Guests": [
        "Some name",
        "Some name",
        "Some name"
      ],
      "FirstPicture": "uri to firstpicture",
      "ProgramName": "Name of program",
      "FirstWords": "First words of program"
    }
  ],
  "Audio": [
    {
      "Title": "Title of audio",
      "Folder": "/some/location",
      "Rights": "copyright of someone",
      "Camera": "Some camera name",
      "LastWord": "Last words",
      "ProxyFile": "string",
      "Presentation": "string",
      "Location": {
        "Name": "Name of location",
        "City": "Tilburg",
        "Province": "Noord-brabant",
        "Street": "Somestreet 137",
        "Zip": "1234AB",
        "Latitude": "52.47451806930726",
        "Longtitude": "52.47451806930726"
      },
      "Format": "string",
      "MediaLocation": "some uri",
      "Duration": 150,
      "Weather": "CLOUDY",
      "FirstWords": "First words of program",
      "ProgramName": "Name of program"
    }
  ],
  "Photos": [
    {
      "Title": "Title of photo",
      "Folder": "/some/location",
      "Rights": "copyright of someone",
      "Camera": "Some camera name",
      "LastWord": "Last words",
      "ProxyFile": "string",
      "Presentation": "string",
      "Location": {
        "Name": "Name of location",
        "City": "Tilburg",
        "Province": "Noord-brabant",
        "Street": "Somestreet 137",
        "Zip": "1234AB",
        "Latitude": "52.47451806930726",
        "Longtitude": "52.47451806930726"
      },
      "Format": "string",
      "MediaLocation": "some uri",
      "Image": "uri to image"
    }
  ]
}